name,lat,lon,投票区名,URL
001-1学校給食センター（元横山）北側,35.66599889,139.3381378,第一,https://www.google.com/maps/dir/?api=1&destination=35.66599889%2C139.3381378
001-2第一小学校東側コンクリート塀,35.66118778,139.3369853,第一,https://www.google.com/maps/dir/?api=1&destination=35.66118778%2C139.3369853
001-3椎名内科向かい側植込,35.66253111,139.3334414,第一,https://www.google.com/maps/dir/?api=1&destination=35.66253111%2C139.3334414
001-4元横西公園北側,35.66628944,139.3329061,第一,https://www.google.com/maps/dir/?api=1&destination=35.66628944%2C139.3329061
001-5第一小学校南側コンクリート塀,35.66071139,139.33645,第一,https://www.google.com/maps/dir/?api=1&destination=35.66071139%2C139.33645
001-6妙薬寺北側ブロック塀,35.66339,139.3352258,第一,https://www.google.com/maps/dir/?api=1&destination=35.66339%2C139.3352258
001-7第一小学校西側フェンス,35.66142389,139.3359611,第一,https://www.google.com/maps/dir/?api=1&destination=35.66142389%2C139.3359611
001-8元横一丁目公園フェンス,35.66419167,139.3411858,第一,https://www.google.com/maps/dir/?api=1&destination=35.66419167%2C139.3411858
002-1第二小学校南側フェンス,35.66155083,139.3222878,第二,https://www.google.com/maps/dir/?api=1&destination=35.66155083%2C139.3222878
002-2八木町公園東側植込,35.66165861,139.3212289,第二,https://www.google.com/maps/dir/?api=1&destination=35.66165861%2C139.3212289
002-3藤和シティホームズ西八王子西側,35.66046722,139.3174042,第二,https://www.google.com/maps/dir/?api=1&destination=35.66046722%2C139.3174042
002-4善能寺北側塀,35.66291028,139.3225506,第二,https://www.google.com/maps/dir/?api=1&destination=35.66291028%2C139.3225506
002-5エコス大横店南側フェンス,35.66111806,139.3291789,第二,https://www.google.com/maps/dir/?api=1&destination=35.66111806%2C139.3291789
002-6第二小学校北側フェンス東側,35.66190806,139.3229567,第二,https://www.google.com/maps/dir/?api=1&destination=35.66190806%2C139.3229567
003-1いちょう公園南大通り側,35.65497056,139.3309528,第三,https://www.google.com/maps/dir/?api=1&destination=35.65497056%2C139.3309528
003-2子安公園西側,35.65282444,139.3348925,第三,https://www.google.com/maps/dir/?api=1&destination=35.65282444%2C139.3348925
003-3念仏院西側大谷石塀,35.65643389,139.3281003,第三,https://www.google.com/maps/dir/?api=1&destination=35.65643389%2C139.3281003
003-4天神公園北側フェンス,35.65740556,139.3294753,第三,https://www.google.com/maps/dir/?api=1&destination=35.65740556%2C139.3294753
003-5西放射線中町公園（風車の広場）北側,35.65894611,139.3354092,第三,https://www.google.com/maps/dir/?api=1&destination=35.65894611%2C139.3354092
003-6子安濱村こかげ公園南側,35.65353944,139.3365131,第三,https://www.google.com/maps/dir/?api=1&destination=35.65353944%2C139.3365131
003-7第三小学校北側フェンス,35.65575972,139.3320158,第三,https://www.google.com/maps/dir/?api=1&destination=35.65575972%2C139.3320158
003-8子安公園南側,35.65216028,139.3350583,第三,https://www.google.com/maps/dir/?api=1&destination=35.65216028%2C139.3350583
004-1竹の花公園北側,35.66248556,139.3418064,第四,https://www.google.com/maps/dir/?api=1&destination=35.66248556%2C139.3418064
004-2クリエイトホール北側植込,35.65868111,139.3400317,第四,https://www.google.com/maps/dir/?api=1&destination=35.65868111%2C139.3400317
004-3第四小学校西側フェンス,35.65749444,139.3452453,第四,https://www.google.com/maps/dir/?api=1&destination=35.65749444%2C139.3452453
004-4第四小学校南側フェンス,35.65693056,139.3458389,第四,https://www.google.com/maps/dir/?api=1&destination=35.65693056%2C139.3458389
004-5北田南公園北側,35.66031417,139.3474572,第四,https://www.google.com/maps/dir/?api=1&destination=35.66031417%2C139.3474572
004-6明神町なかよし公園北西フェンス,35.65682361,139.3471417,第四,https://www.google.com/maps/dir/?api=1&destination=35.65682361%2C139.3471417
004-7第五中学校北側植込,35.66182028,139.3437922,第四,https://www.google.com/maps/dir/?api=1&destination=35.66182028%2C139.3437922
004-8都立南多摩中等教育学校南側植込,35.65963083,139.3431883,第四,https://www.google.com/maps/dir/?api=1&destination=35.65963083%2C139.3431883
005-1せきれい児童遊園フェンス前植込,35.66037528,139.3063214,第五,https://www.google.com/maps/dir/?api=1&destination=35.66037528%2C139.3063214
005-2千人町桑の実児童公園西側先,35.65759889,139.3098931,第五,https://www.google.com/maps/dir/?api=1&destination=35.65759889%2C139.3098931
005-3千人保育園東側フェンス,35.65890361,139.3102067,第五,https://www.google.com/maps/dir/?api=1&destination=35.65890361%2C139.3102067
005-4第五小学校東側入口脇フェンス,35.65963694,139.3089672,第五,https://www.google.com/maps/dir/?api=1&destination=35.65963694%2C139.3089672
005-5第五小学校西側入口脇フェンス,35.65840917,139.3079089,第五,https://www.google.com/maps/dir/?api=1&destination=35.65840917%2C139.3079089
005-6都立八王子桑志高等学校敷地西側市道フェンス,35.65696583,139.3042792,第五,https://www.google.com/maps/dir/?api=1&destination=35.65696583%2C139.3042792
005-7西八王子駅北口自転車駐車場南側ブロック,35.656535,139.3121233,第五,https://www.google.com/maps/dir/?api=1&destination=35.656535%2C139.3121233
005-8千人町どんぐり広場北側,35.65794,139.3063586,第五,https://www.google.com/maps/dir/?api=1&destination=35.65794%2C139.3063586
006-1清流寺東側空地,35.65236889,139.3441028,第六,https://www.google.com/maps/dir/?api=1&destination=35.65236889%2C139.3441028
006-2子安東公園南側植込,35.65116278,139.3403547,第六,https://www.google.com/maps/dir/?api=1&destination=35.65116278%2C139.3403547
006-3いずみの森義務教育学校北側フェンス,35.65032667,139.341165,第六,https://www.google.com/maps/dir/?api=1&destination=35.65032667%2C139.341165
006-4八王子ハローワーク西側フェンス,35.65384139,139.3408933,第六,https://www.google.com/maps/dir/?api=1&destination=35.65384139%2C139.3408933
006-5由井中学校西側フェンス,35.64449833,139.3393294,第六,https://www.google.com/maps/dir/?api=1&destination=35.64449833%2C139.3393294
006-6子安六万坊公園北側フェンス,35.65065388,139.3468396,第六,https://www.google.com/maps/dir/?api=1&destination=35.65065388%2C139.3468396
006-7六本杉公園北側フェンス,35.64923944,139.3407281,第六,https://www.google.com/maps/dir/?api=1&destination=35.64923944%2C139.3407281
006-8子安市民センター西側,35.650905,139.3444317,第六,https://www.google.com/maps/dir/?api=1&destination=35.650905%2C139.3444317
006-9六本杉公園南側フェンス,35.64862472,139.3414567,第六,https://www.google.com/maps/dir/?api=1&destination=35.64862472%2C139.3414567
007-1バス停「南大通り」南側空地,35.65549139,139.3260694,第七,https://www.google.com/maps/dir/?api=1&destination=35.65549139%2C139.3260694
007-2金剛院南側ブロック塀,35.65655,139.3271706,第七,https://www.google.com/maps/dir/?api=1&destination=35.65655%2C139.3271706
007-3千人町分教会南側コンクリート塀,35.65650389,139.3163306,第七,https://www.google.com/maps/dir/?api=1&destination=35.65650389%2C139.3163306
007-4台町見晴公園南側,35.6545675,139.3235469,第七,https://www.google.com/maps/dir/?api=1&destination=35.6545675%2C139.3235469
007-5八王子拓真高等学校西側植込,35.65460472,139.3163764,第七,https://www.google.com/maps/dir/?api=1&destination=35.65460472%2C139.3163764
007-6第七小学校北側フェンス,35.65720639,139.3233103,第七,https://www.google.com/maps/dir/?api=1&destination=35.65720639%2C139.3233103
007-7第七小学校東側フェンス,35.65650667,139.3242947,第七,https://www.google.com/maps/dir/?api=1&destination=35.65650667%2C139.3242947
007-8小児・障害メディカルセンター　東側フェンス,35.657545,139.3186742,第七,https://www.google.com/maps/dir/?api=1&destination=35.657545%2C139.3186742
008-1（株）サンエス西側ブロック塀,35.67432222,139.3161525,第八,https://www.google.com/maps/dir/?api=1&destination=35.67432222%2C139.3161525
008-2中野保育園南側フェンス,35.66658278,139.3247008,第八,https://www.google.com/maps/dir/?api=1&destination=35.66658278%2C139.3247008
008-3第九小学校南側フェンス,35.67027972,139.3246675,第八,https://www.google.com/maps/dir/?api=1&destination=35.67027972%2C139.3246675
008-4第九小学校西側フェンス,35.67089222,139.3237017,第八,https://www.google.com/maps/dir/?api=1&destination=35.67089222%2C139.3237017
008-5第二中学校西側フェンス,35.67015917,139.3143961,第八,https://www.google.com/maps/dir/?api=1&destination=35.67015917%2C139.3143961
008-6日本機械工業（株）八王子工場北西側フェンス,35.6713125,139.3175431,第八,https://www.google.com/maps/dir/?api=1&destination=35.6713125%2C139.3175431
008-7八王子市補修センター北側ブロック塀,35.66954639,139.3200839,第八,https://www.google.com/maps/dir/?api=1&destination=35.66954639%2C139.3200839
009-1東三まちの広場フェンス,35.66937806,139.3341353,第九,https://www.google.com/maps/dir/?api=1&destination=35.66937806%2C139.3341353
009-2第十小学校北側フェンス,35.66620444,139.3442158,第九,https://www.google.com/maps/dir/?api=1&destination=35.66620444%2C139.3442158
009-3第十小学校南東側フェンス,35.66505611,139.3439178,第九,https://www.google.com/maps/dir/?api=1&destination=35.66505611%2C139.3439178
009-4西花田原公園東側（入口沿い）,35.668735,139.3461817,第九,https://www.google.com/maps/dir/?api=1&destination=35.668735%2C139.3461817
009-5大和田七丁目アパート１号棟前駐車場フェンス,35.66750167,139.3439514,第九,https://www.google.com/maps/dir/?api=1&destination=35.66750167%2C139.3439514
009-6八王子郵便局北側,35.66709667,139.3407861,第九,https://www.google.com/maps/dir/?api=1&destination=35.66709667%2C139.3407861
009-7富士見町緑地,35.66822222,139.3509561,第九,https://www.google.com/maps/dir/?api=1&destination=35.66822222%2C139.3509561
009-8大和田市民センター東側植込,35.66306444,139.3521097,第九,https://www.google.com/maps/dir/?api=1&destination=35.66306444%2C139.3521097
009-9ひよどり山中学校南門横フェンス,35.6753975,139.3388747,第九,https://www.google.com/maps/dir/?api=1&destination=35.6753975%2C139.3388747
010-1ひよどり公園北側フェンス,35.67435028,139.3336328,第十,https://www.google.com/maps/dir/?api=1&destination=35.67435028%2C139.3336328
010-2中田遺跡公園南側,35.67375806,139.32386,第十,https://www.google.com/maps/dir/?api=1&destination=35.67375806%2C139.32386
010-3清水小学校東側,35.67592167,139.3205408,第十,https://www.google.com/maps/dir/?api=1&destination=35.67592167%2C139.3205408
010-4信用土地（株）西側コンクリート塀,35.67124583,139.3283328,第十,https://www.google.com/maps/dir/?api=1&destination=35.67124583%2C139.3283328
010-5中野北小学校北側フェンス,35.67469361,139.3265914,第十,https://www.google.com/maps/dir/?api=1&destination=35.67469361%2C139.3265914
010-6中野北小学校南側フェンス,35.67365306,139.3272897,第十,https://www.google.com/maps/dir/?api=1&destination=35.67365306%2C139.3272897
010-7中田遺跡公園北側,35.6745475,139.3240506,第十,https://www.google.com/maps/dir/?api=1&destination=35.6745475%2C139.3240506
011-1北の原公園北側,35.66765056,139.3551003,第十一,https://www.google.com/maps/dir/?api=1&destination=35.66765056%2C139.3551003
011-2大和田小学校北側フェンス,35.66606639,139.3543833,第十一,https://www.google.com/maps/dir/?api=1&destination=35.66606639%2C139.3543833
011-3大和田小学校南東側フェンス,35.66487417,139.3551433,第十一,https://www.google.com/maps/dir/?api=1&destination=35.66487417%2C139.3551433
011-4大和台公園北側フェンス,35.66819361,139.3563683,第十一,https://www.google.com/maps/dir/?api=1&destination=35.66819361%2C139.3563683
011-5石川道公園南側,35.66838083,139.3526306,第十一,https://www.google.com/maps/dir/?api=1&destination=35.66838083%2C139.3526306
011-6南原公園東南,35.66241833,139.3581428,第十一,https://www.google.com/maps/dir/?api=1&destination=35.66241833%2C139.3581428
011-7大和田公園西側,35.66484333,139.3590808,第十一,https://www.google.com/maps/dir/?api=1&destination=35.66484333%2C139.3590808
012-1富士森公園こども広場北側,35.65308556,139.3232981,第十二,https://www.google.com/maps/dir/?api=1&destination=35.65308556%2C139.3232981
012-2富士森公園東側,35.65121667,139.3253125,第十二,https://www.google.com/maps/dir/?api=1&destination=35.65121667%2C139.3253125
012-3野球場西側植込,35.65211944,139.3209508,第十二,https://www.google.com/maps/dir/?api=1&destination=35.65211944%2C139.3209508
012-4八王子市教育センター正門横フェンス,35.64946861,139.3198681,第十二,https://www.google.com/maps/dir/?api=1&destination=35.64946861%2C139.3198681
012-5第七中学校南面フェンス,35.65025028,139.3164381,第十二,https://www.google.com/maps/dir/?api=1&destination=35.65025028%2C139.3164381
012-6朝日ヶ丘富士見公園,35.64791472,139.3136819,第十二,https://www.google.com/maps/dir/?api=1&destination=35.64791472%2C139.3136819
012-7散田南公園北側フェンス,35.64809194,139.3105967,第十二,https://www.google.com/maps/dir/?api=1&destination=35.64809194%2C139.3105967
013-1谷野北公園北側,35.68478278,139.3212597,第十三,https://www.google.com/maps/dir/?api=1&destination=35.68478278%2C139.3212597
013-2左入公園南側,35.67967111,139.3286519,第十三,https://www.google.com/maps/dir/?api=1&destination=35.67967111%2C139.3286519
013-3谷野東公園,35.68168222,139.3301111,第十三,https://www.google.com/maps/dir/?api=1&destination=35.68168222%2C139.3301111
013-4谷野南公園東側,35.68170639,139.3254036,第十三,https://www.google.com/maps/dir/?api=1&destination=35.68170639%2C139.3254036
013-5中野市民センター北側植込,35.68179639,139.31879,第十三,https://www.google.com/maps/dir/?api=1&destination=35.68179639%2C139.31879
013-6工学院大学南側フェンス,35.68267806,139.3176086,第十三,https://www.google.com/maps/dir/?api=1&destination=35.68267806%2C139.3176086
013-7甲の原体育館東側植込,35.68088333,139.3187714,第十三,https://www.google.com/maps/dir/?api=1&destination=35.68088333%2C139.3187714
013-8甲の原北公園北側,35.68167806,139.3208078,第十三,https://www.google.com/maps/dir/?api=1&destination=35.68167806%2C139.3208078
014-1元本郷公園西側,35.66401139,139.3125903,第十四,https://www.google.com/maps/dir/?api=1&destination=35.66401139%2C139.3125903
014-2商工会議所駐車場北フェンス,35.66435778,139.3287983,第十四,https://www.google.com/maps/dir/?api=1&destination=35.66435778%2C139.3287983
014-3東平岡公園北側,35.66457222,139.3263175,第十四,https://www.google.com/maps/dir/?api=1&destination=35.66457222%2C139.3263175
014-4市営住宅元本郷団地４号棟北側,35.66458278,139.3196558,第十四,https://www.google.com/maps/dir/?api=1&destination=35.66458278%2C139.3196558
014-5コンビニ向かい側民家塀,35.66419056,139.31446,第十四,https://www.google.com/maps/dir/?api=1&destination=35.66419056%2C139.31446
014-6市営住宅元本郷団地１号棟北側駐車場前,35.66483889,139.3170042,第十四,https://www.google.com/maps/dir/?api=1&destination=35.66483889%2C139.3170042
014-7八王子市役所来庁者駐車場東側,35.66657139,139.3150689,第十四,https://www.google.com/maps/dir/?api=1&destination=35.66657139%2C139.3150689
015-1緑町霊園北側フェンス,35.64955,139.3244303,第十五,https://www.google.com/maps/dir/?api=1&destination=35.64955%2C139.3244303
015-2第六中学校東側フェンス,35.65297917,139.3307339,第十五,https://www.google.com/maps/dir/?api=1&destination=35.65297917%2C139.3307339
015-3第六中学校西側フェンス,35.65293556,139.3292542,第十五,https://www.google.com/maps/dir/?api=1&destination=35.65293556%2C139.3292542
015-4上野町公園西側フェンス,35.65350472,139.3277931,第十五,https://www.google.com/maps/dir/?api=1&destination=35.65350472%2C139.3277931
015-5八王子実践高校北側フェンス,35.65225111,139.3298603,第十五,https://www.google.com/maps/dir/?api=1&destination=35.65225111%2C139.3298603
015-6八王子実践高校体育館南側フェンス,35.65012333,139.3279097,第十五,https://www.google.com/maps/dir/?api=1&destination=35.65012333%2C139.3279097
015-7緑町もみじ公園東側植込,35.64749583,139.3290972,第十五,https://www.google.com/maps/dir/?api=1&destination=35.64749583%2C139.3290972
030-1都立陵南公園西側植込,35.648175,139.2922536,浅川第一,https://www.google.com/maps/dir/?api=1&destination=35.648175%2C139.2922536
030-2長泉寺東側市道フェンス,35.65300667,139.2894456,浅川第一,https://www.google.com/maps/dir/?api=1&destination=35.65300667%2C139.2894456
030-3長房町消防団機具置場フェンス,35.65170139,139.2860039,浅川第一,https://www.google.com/maps/dir/?api=1&destination=35.65170139%2C139.2860039
030-4原宿町会館前フェンス,35.646355,139.2889253,浅川第一,https://www.google.com/maps/dir/?api=1&destination=35.646355%2C139.2889253
030-5都立陵南公園北側フェンス,35.64989528,139.2895436,浅川第一,https://www.google.com/maps/dir/?api=1&destination=35.64989528%2C139.2895436
030-6原宿町会内三角地花壇歩道側,35.64700611,139.2908908,浅川第一,https://www.google.com/maps/dir/?api=1&destination=35.64700611%2C139.2908908
030-7都立陵南公園北側,35.64882806,139.2924164,浅川第一,https://www.google.com/maps/dir/?api=1&destination=35.64882806%2C139.2924164
031-1旧浅川支所東側フェンス,35.64273806,139.2750214,浅川第二,https://www.google.com/maps/dir/?api=1&destination=35.64273806%2C139.2750214
031-2高尾駅北口臨時駐輪場フェンス,35.64232806,139.2801861,浅川第二,https://www.google.com/maps/dir/?api=1&destination=35.64232806%2C139.2801861
031-3西浅川児童遊園,35.63979806,139.2720839,浅川第二,https://www.google.com/maps/dir/?api=1&destination=35.63979806%2C139.2720839
031-4浅川事務所西側フェンス,35.64309611,139.2767839,浅川第二,https://www.google.com/maps/dir/?api=1&destination=35.64309611%2C139.2767839
031-5御嶽神社横,35.643615,139.2800264,浅川第二,https://www.google.com/maps/dir/?api=1&destination=35.643615%2C139.2800264
031-6廿里町公会堂向かい,35.64550167,139.2822964,浅川第二,https://www.google.com/maps/dir/?api=1&destination=35.64550167%2C139.2822964
032-1消防団第１１分団第１１部器具置場東側畑,35.62877472,139.2688583,浅川第三,https://www.google.com/maps/dir/?api=1&destination=35.62877472%2C139.2688583
032-2高尾山口駅北交差点,35.63426333,139.2706333,浅川第三,https://www.google.com/maps/dir/?api=1&destination=35.63426333%2C139.2706333
032-3東京都水道局南浅川配水所,35.61976944,139.2623033,浅川第三,https://www.google.com/maps/dir/?api=1&destination=35.61976944%2C139.2623033
032-4高尾山口駅横公園脇遊歩道フェンス（トイレ手前）,35.63177944,139.2696647,浅川第三,https://www.google.com/maps/dir/?api=1&destination=35.63177944%2C139.2696647
033-1裏高尾増圧ポンプ所付近,35.63956472,139.2477808,浅川第四,https://www.google.com/maps/dir/?api=1&destination=35.63956472%2C139.2477808
033-2高尾梅の郷まちの広場,35.63872139,139.2559203,浅川第四,https://www.google.com/maps/dir/?api=1&destination=35.63872139%2C139.2559203
033-3駒木野病院北側万年塀,35.64096194,139.2687139,浅川第四,https://www.google.com/maps/dir/?api=1&destination=35.64096194%2C139.2687139
034-1高尾駅南口バス停中央植込,35.64180306,139.2837953,浅川第五,https://www.google.com/maps/dir/?api=1&destination=35.64180306%2C139.2837953
034-2浅川小学校東側フェンス,35.64029306,139.2826356,浅川第五,https://www.google.com/maps/dir/?api=1&destination=35.64029306%2C139.2826356
034-3初沢橋横,35.64049806,139.28051,浅川第五,https://www.google.com/maps/dir/?api=1&destination=35.64049806%2C139.28051
034-4紅葉台中公園西側,35.63252083,139.2793808,浅川第五,https://www.google.com/maps/dir/?api=1&destination=35.63252083%2C139.2793808
034-5狭間公園南側,35.64048278,139.290575,浅川第五,https://www.google.com/maps/dir/?api=1&destination=35.64048278%2C139.290575
034-6八王子狭間住宅南側児童公園フェンス,35.63761667,139.2882617,浅川第五,https://www.google.com/maps/dir/?api=1&destination=35.63761667%2C139.2882617
034-7猿額公園,35.63507389,139.2853178,浅川第五,https://www.google.com/maps/dir/?api=1&destination=35.63507389%2C139.2853178
034-8三和団地自治会案内図付近,35.63861444,139.2757567,浅川第五,https://www.google.com/maps/dir/?api=1&destination=35.63861444%2C139.2757567
035-1東浅川小学校南側フェンス,35.6417875,139.2869106,浅川第六,https://www.google.com/maps/dir/?api=1&destination=35.6417875%2C139.2869106
035-2東浅川公園西側フェンス,35.64659361,139.29507,浅川第六,https://www.google.com/maps/dir/?api=1&destination=35.64659361%2C139.29507
035-3東浅川公園東側フェンス,35.64739111,139.2962342,浅川第六,https://www.google.com/maps/dir/?api=1&destination=35.64739111%2C139.2962342
035-4東浅川小学校西側フェンス,35.64231556,139.2862092,浅川第六,https://www.google.com/maps/dir/?api=1&destination=35.64231556%2C139.2862092
035-5陵南中学校南側フェンス,35.64478917,139.2944564,浅川第六,https://www.google.com/maps/dir/?api=1&destination=35.64478917%2C139.2944564
035-6（有）協和製作所付近,35.64426889,139.2992122,浅川第六,https://www.google.com/maps/dir/?api=1&destination=35.64426889%2C139.2992122
035-7狭間公園西側,35.64084611,139.2896653,浅川第六,https://www.google.com/maps/dir/?api=1&destination=35.64084611%2C139.2896653
035-8陵南中学校西側フェンス,35.64570444,139.292405,浅川第六,https://www.google.com/maps/dir/?api=1&destination=35.64570444%2C139.292405
040-1越野下根公園敷地内,35.62906944,139.3904819,由木第一,https://www.google.com/maps/dir/?api=1&destination=35.62906944%2C139.3904819
040-2越野吹上公園,35.62920556,139.3864308,由木第一,https://www.google.com/maps/dir/?api=1&destination=35.62920556%2C139.3864308
040-3由木中央市民センター前道路沿い,35.62705972,139.3823547,由木第一,https://www.google.com/maps/dir/?api=1&destination=35.62705972%2C139.3823547
040-4旧由木事務所跡地野猿街道沿いフェンス,35.62827417,139.382775,由木第一,https://www.google.com/maps/dir/?api=1&destination=35.62827417%2C139.382775
040-5バス停「殿ヶ谷戸」前畑,35.62991222,139.3776442,由木第一,https://www.google.com/maps/dir/?api=1&destination=35.62991222%2C139.3776442
040-6NTT由木電話交換局フェンス,35.62878222,139.38781,由木第一,https://www.google.com/maps/dir/?api=1&destination=35.62878222%2C139.38781
040-7下柚木小学校北側土手,35.62226333,139.3796142,由木第一,https://www.google.com/maps/dir/?api=1&destination=35.62226333%2C139.3796142
040-8大片瀬公園敷地内,35.62487472,139.3802614,由木第一,https://www.google.com/maps/dir/?api=1&destination=35.62487472%2C139.3802614
040-9越野北八幡公園南側敷地内,35.63039833,139.3933108,由木第一,https://www.google.com/maps/dir/?api=1&destination=35.63039833%2C139.3933108
041-1由木西小学校西側フェンス,35.62321278,139.3608825,由木第二,https://www.google.com/maps/dir/?api=1&destination=35.62321278%2C139.3608825
041-2（有）松原工業ストックヤード東側空地,35.62458694,139.3697044,由木第二,https://www.google.com/maps/dir/?api=1&destination=35.62458694%2C139.3697044
041-3中山会館前,35.62767611,139.3630139,由木第二,https://www.google.com/maps/dir/?api=1&destination=35.62767611%2C139.3630139
041-4バス停「上柚木」前フェンス,35.62213389,139.3708242,由木第二,https://www.google.com/maps/dir/?api=1&destination=35.62213389%2C139.3708242
041-5上柚木駐在所南側道路フェンス,35.62090083,139.3654625,由木第二,https://www.google.com/maps/dir/?api=1&destination=35.62090083%2C139.3654625
041-6日影橋北西側,35.61987278,139.3650808,由木第二,https://www.google.com/maps/dir/?api=1&destination=35.61987278%2C139.3650808
041-7中山小学校南側フェンス,35.62511194,139.3578364,由木第二,https://www.google.com/maps/dir/?api=1&destination=35.62511194%2C139.3578364
042-1海公園西側,35.63340639,139.3735411,由木第三,https://www.google.com/maps/dir/?api=1&destination=35.63340639%2C139.3735411
042-2都立長沼公園平山口階段下,35.63650778,139.3741669,由木第三,https://www.google.com/maps/dir/?api=1&destination=35.63650778%2C139.3741669
042-3北楽公園敷地内西寄り,35.63557278,139.3749528,由木第三,https://www.google.com/maps/dir/?api=1&destination=35.63557278%2C139.3749528
042-4竹の子公園敷地内,35.63191833,139.3772817,由木第三,https://www.google.com/maps/dir/?api=1&destination=35.63191833%2C139.3772817
042-5バス停「南陽台中央」北側空地,35.63434222,139.3771214,由木第三,https://www.google.com/maps/dir/?api=1&destination=35.63434222%2C139.3771214
050-1信号「八王子堀之内東」東側梅林フェンス,35.63117806,139.4040706,由木東第一,https://www.google.com/maps/dir/?api=1&destination=35.63117806%2C139.4040706
050-2堀之内洗馬川公園東側道路沿い,35.63089861,139.4062022,由木東第一,https://www.google.com/maps/dir/?api=1&destination=35.63089861%2C139.4062022
050-3堀之内引切公園北側フェンス,35.62994444,139.4032681,由木東第一,https://www.google.com/maps/dir/?api=1&destination=35.62994444%2C139.4032681
050-4松原公園南側フェンス,35.64178889,139.4117311,由木東第一,https://www.google.com/maps/dir/?api=1&destination=35.64178889%2C139.4117311
050-5（株）加藤ガス東側空地,35.63568139,139.4115536,由木東第一,https://www.google.com/maps/dir/?api=1&destination=35.63568139%2C139.4115536
050-6東中野かじざか公園入口左側植込,35.64327417,139.4118036,由木東第一,https://www.google.com/maps/dir/?api=1&destination=35.64327417%2C139.4118036
050-7由木東小学校北側フェンス,35.63376972,139.40794,由木東第一,https://www.google.com/maps/dir/?api=1&destination=35.63376972%2C139.40794
050-8由木東小学校東側フェンス,35.63296667,139.4088606,由木東第一,https://www.google.com/maps/dir/?api=1&destination=35.63296667%2C139.4088606
050-9天野谷戸公園北側道路沿い,35.63951361,139.4127722,由木東第一,https://www.google.com/maps/dir/?api=1&destination=35.63951361%2C139.4127722
051-1バス停「大塚公園」前道路沿い,35.6327625,139.4173314,由木東第二,https://www.google.com/maps/dir/?api=1&destination=35.6327625%2C139.4173314
051-2大塚西公園東側植え込み,35.62828611,139.4188653,由木東第二,https://www.google.com/maps/dir/?api=1&destination=35.62828611%2C139.4188653
051-3望地公園南側,35.63217722,139.4203339,由木東第二,https://www.google.com/maps/dir/?api=1&destination=35.63217722%2C139.4203339
051-4バス停「松が谷小学校」前道路沿い,35.62937361,139.4134308,由木東第二,https://www.google.com/maps/dir/?api=1&destination=35.62937361%2C139.4134308
051-5バス停「松が谷」前道路沿い,35.62737639,139.4144247,由木東第二,https://www.google.com/maps/dir/?api=1&destination=35.62737639%2C139.4144247
051-6大塚橋西側フェンス,35.63375778,139.4203042,由木東第二,https://www.google.com/maps/dir/?api=1&destination=35.63375778%2C139.4203042
051-7乳母ケ谷公園西側道路沿い,35.62858139,139.4115114,由木東第二,https://www.google.com/maps/dir/?api=1&destination=35.62858139%2C139.4115114
052-1都営鹿島１６番地団地南側道路沿い,35.63482889,139.4266856,由木東第三,https://www.google.com/maps/dir/?api=1&destination=35.63482889%2C139.4266856
052-2鹿島小学校南側校門横フェンス（プール側）,35.63316167,139.425935,由木東第三,https://www.google.com/maps/dir/?api=1&destination=35.63316167%2C139.425935
052-3バス停「鹿島」前道路沿い,35.63405444,139.4241783,由木東第三,https://www.google.com/maps/dir/?api=1&destination=35.63405444%2C139.4241783
052-4梶川緑地西側道路沿い,35.63453167,139.4203122,由木東第三,https://www.google.com/maps/dir/?api=1&destination=35.63453167%2C139.4203122
052-5大塚東公園西側バス停「山根入」,35.63081861,139.4229675,由木東第三,https://www.google.com/maps/dir/?api=1&destination=35.63081861%2C139.4229675
052-6大塚なかおね公園西側フェンス,35.64340972,139.4134856,由木東第三,https://www.google.com/maps/dir/?api=1&destination=35.64340972%2C139.4134856
052-7由木ケ丘公園北側フェンス左寄り,35.63906611,139.4144064,由木東第三,https://www.google.com/maps/dir/?api=1&destination=35.63906611%2C139.4144064
052-8大塚宮田公園西側道路沿い,35.63630611,139.4194275,由木東第三,https://www.google.com/maps/dir/?api=1&destination=35.63630611%2C139.4194275
060-1秋葉台小学校西側,35.62449361,139.4048297,南大沢第一,https://www.google.com/maps/dir/?api=1&destination=35.62449361%2C139.4048297
060-2VIA長池立体駐車場南側,35.62390917,139.4019017,南大沢第一,https://www.google.com/maps/dir/?api=1&destination=35.62390917%2C139.4019017
060-3別所中学校入口脇,35.61981806,139.40024,南大沢第一,https://www.google.com/maps/dir/?api=1&destination=35.61981806%2C139.40024
060-4別所公園東側入口脇,35.61775944,139.3994928,南大沢第一,https://www.google.com/maps/dir/?api=1&destination=35.61775944%2C139.3994928
060-5別所小学校西側,35.61345,139.3949678,南大沢第一,https://www.google.com/maps/dir/?api=1&destination=35.61345%2C139.3949678
060-6別所小学校北側,35.61497278,139.3956169,南大沢第一,https://www.google.com/maps/dir/?api=1&destination=35.61497278%2C139.3956169
060-7別所公園南,35.61534972,139.3996247,南大沢第一,https://www.google.com/maps/dir/?api=1&destination=35.61534972%2C139.3996247
060-8別所ふれあい公園東側,35.62312222,139.3987792,南大沢第一,https://www.google.com/maps/dir/?api=1&destination=35.62312222%2C139.3987792
061-1松木中学校南側フェンス,35.61771444,139.3921442,南大沢第二,https://www.google.com/maps/dir/?api=1&destination=35.61771444%2C139.3921442
061-2大石やかた公園,35.62767861,139.3876808,南大沢第二,https://www.google.com/maps/dir/?api=1&destination=35.62767861%2C139.3876808
061-3松木えのき公園,35.62118528,139.3889972,南大沢第二,https://www.google.com/maps/dir/?api=1&destination=35.62118528%2C139.3889972
061-4松木小学校正門脇,35.62242639,139.3944972,南大沢第二,https://www.google.com/maps/dir/?api=1&destination=35.62242639%2C139.3944972
061-5松木峰ヶ谷戸公園,35.62428,139.3962569,南大沢第二,https://www.google.com/maps/dir/?api=1&destination=35.62428%2C139.3962569
061-6蓮生寺公園北西側,35.62056278,139.3943772,南大沢第二,https://www.google.com/maps/dir/?api=1&destination=35.62056278%2C139.3943772
061-7多摩ニュータウン蓮生寺団地集会所東側,35.62135472,139.3967644,南大沢第二,https://www.google.com/maps/dir/?api=1&destination=35.62135472%2C139.3967644
061-8富士見台公園第２駐車場東,35.62471528,139.3863167,南大沢第二,https://www.google.com/maps/dir/?api=1&destination=35.62471528%2C139.3863167
062-1南大沢中郷公園入口西側,35.61271806,139.380095,南大沢第三,https://www.google.com/maps/dir/?api=1&destination=35.61271806%2C139.380095
062-2柏木小学校西側フェンス,35.60974083,139.382375,南大沢第三,https://www.google.com/maps/dir/?api=1&destination=35.60974083%2C139.382375
062-3バス停「南大沢団地」前,35.60560417,139.3811561,南大沢第三,https://www.google.com/maps/dir/?api=1&destination=35.60560417%2C139.3811561
062-4トミンハイム南大沢東北側,35.60414056,139.3829739,南大沢第三,https://www.google.com/maps/dir/?api=1&destination=35.60414056%2C139.3829739
062-5東光寺橋フェンス南端,35.61300778,139.3779075,南大沢第三,https://www.google.com/maps/dir/?api=1&destination=35.61300778%2C139.3779075
062-6南大沢駅北口歩行者通路上フェンス,35.61476361,139.3791842,南大沢第三,https://www.google.com/maps/dir/?api=1&destination=35.61476361%2C139.3791842
062-7南大沢長谷戸公園前,35.6063475,139.3854256,南大沢第三,https://www.google.com/maps/dir/?api=1&destination=35.6063475%2C139.3854256
062-8南大沢日向公園東側,35.61775778,139.3839519,南大沢第三,https://www.google.com/maps/dir/?api=1&destination=35.61775778%2C139.3839519
063-1バス停「だいり橋」向い側土手,35.61591667,139.3757436,南大沢第四,https://www.google.com/maps/dir/?api=1&destination=35.61591667%2C139.3757436
063-2宮上中学校東側入口道路沿い,35.6131975,139.3745108,南大沢第四,https://www.google.com/maps/dir/?api=1&destination=35.6131975%2C139.3745108
063-3公団南大沢学園２番街西南角,35.61545083,139.3730625,南大沢第四,https://www.google.com/maps/dir/?api=1&destination=35.61545083%2C139.3730625
063-4バス停「三徳プラザ前」前道路先,35.61314611,139.3696631,南大沢第四,https://www.google.com/maps/dir/?api=1&destination=35.61314611%2C139.3696631
063-5宮上小学校正門西側,35.61098,139.3709122,南大沢第四,https://www.google.com/maps/dir/?api=1&destination=35.61098%2C139.3709122
063-6上柚木小学校西側土手,35.61544556,139.36795,南大沢第四,https://www.google.com/maps/dir/?api=1&destination=35.61544556%2C139.36795
063-7上柚木公園健康広場南側,35.61911639,139.3717358,南大沢第四,https://www.google.com/maps/dir/?api=1&destination=35.61911639%2C139.3717358
063-8上柚木公園内野球場前児童遊園植込,35.61752972,139.3667719,南大沢第四,https://www.google.com/maps/dir/?api=1&destination=35.61752972%2C139.3667719
064-1板木会館東側,35.61356194,139.35863,南大沢第五,https://www.google.com/maps/dir/?api=1&destination=35.61356194%2C139.35863
064-2パークフィーネ南大沢一番館前,35.61043444,139.3669414,南大沢第五,https://www.google.com/maps/dir/?api=1&destination=35.61043444%2C139.3669414
064-3絹の道一番街北側,35.6130725,139.3667817,南大沢第五,https://www.google.com/maps/dir/?api=1&destination=35.6130725%2C139.3667817
064-4宮上駐在所西側植込前壁面,35.61288,139.3682458,南大沢第五,https://www.google.com/maps/dir/?api=1&destination=35.61288%2C139.3682458
064-5鑓水中学校東,35.61307917,139.3606492,南大沢第五,https://www.google.com/maps/dir/?api=1&destination=35.61307917%2C139.3606492
064-6鑓水小学校北西側,35.61390278,139.3633553,南大沢第五,https://www.google.com/maps/dir/?api=1&destination=35.61390278%2C139.3633553
064-7鑓水公園西側入口脇,35.61084694,139.3599775,南大沢第五,https://www.google.com/maps/dir/?api=1&destination=35.61084694%2C139.3599775
065-1信号「由木西小入口」前,35.61568167,139.3619656,南大沢第六,https://www.google.com/maps/dir/?api=1&destination=35.61568167%2C139.3619656
065-2鑓水公会堂前,35.61730917,139.3546258,南大沢第六,https://www.google.com/maps/dir/?api=1&destination=35.61730917%2C139.3546258
065-3鑓水まちの広場南側フェンス前,35.61637889,139.3552381,南大沢第六,https://www.google.com/maps/dir/?api=1&destination=35.61637889%2C139.3552381
065-4多摩美術大学入口東側,35.61325139,139.3506025,南大沢第六,https://www.google.com/maps/dir/?api=1&destination=35.61325139%2C139.3506025
065-5信号「多摩美大西」東方先,35.61351778,139.3482733,南大沢第六,https://www.google.com/maps/dir/?api=1&destination=35.61351778%2C139.3482733
065-6バス停「鑓水入口」東方,35.61387139,139.3437178,南大沢第六,https://www.google.com/maps/dir/?api=1&destination=35.61387139%2C139.3437178
066-1バス停「九反甫公園」前,35.60607889,139.3771586,南大沢第七,https://www.google.com/maps/dir/?api=1&destination=35.60607889%2C139.3771586
066-2南大沢小学校正門脇,35.6074325,139.37455,南大沢第七,https://www.google.com/maps/dir/?api=1&destination=35.6074325%2C139.37455
066-3都立小山内裏公園東,35.60588944,139.3751897,南大沢第七,https://www.google.com/maps/dir/?api=1&destination=35.60588944%2C139.3751897
066-4多摩ニュータウン南大沢団地４号棟東側,35.608945,139.3769647,南大沢第七,https://www.google.com/maps/dir/?api=1&destination=35.608945%2C139.3769647
066-5四季の丘南緑地西側,35.60419,139.3734578,南大沢第七,https://www.google.com/maps/dir/?api=1&destination=35.60419%2C139.3734578
066-6公団シティハイツ南大沢西側,35.61069333,139.3773797,南大沢第七,https://www.google.com/maps/dir/?api=1&destination=35.61069333%2C139.3773797
066-7南大沢小学校北側校門脇,35.609145,139.3748972,南大沢第七,https://www.google.com/maps/dir/?api=1&destination=35.609145%2C139.3748972
067-1長池小学校西側道路沿い,35.60989278,139.3879025,南大沢第八,https://www.google.com/maps/dir/?api=1&destination=35.60989278%2C139.3879025
067-2松木公園西側駐車場前植込,35.611995,139.3894344,南大沢第八,https://www.google.com/maps/dir/?api=1&destination=35.611995%2C139.3894344
067-3松木公園東側植込,35.61226444,139.3912708,南大沢第八,https://www.google.com/maps/dir/?api=1&destination=35.61226444%2C139.3912708
067-4公団ビューコート別所3号棟集会所前,35.61541722,139.3900036,南大沢第八,https://www.google.com/maps/dir/?api=1&destination=35.61541722%2C139.3900036
067-5多摩ニュータウン別所一丁目第２団地1号棟駐車場裏植込,35.60850333,139.3881147,南大沢第八,https://www.google.com/maps/dir/?api=1&destination=35.60850333%2C139.3881147
067-6別所やまざくら公園南側,35.61646833,139.3870967,南大沢第八,https://www.google.com/maps/dir/?api=1&destination=35.61646833%2C139.3870967
067-7別所坂公園下歩道橋前広場,35.61461444,139.3850078,南大沢第八,https://www.google.com/maps/dir/?api=1&destination=35.61461444%2C139.3850078
067-8長池小学校北側道路植込,35.61165417,139.387955,南大沢第八,https://www.google.com/maps/dir/?api=1&destination=35.61165417%2C139.387955
080-1旧横山事務所前,35.65126306,139.300195,横山第一,https://www.google.com/maps/dir/?api=1&destination=35.65126306%2C139.300195
080-2並木町ふれあい公園内フェンス,35.65280583,139.3041047,横山第一,https://www.google.com/maps/dir/?api=1&destination=35.65280583%2C139.3041047
080-3バス停「桑志高校」南側信号前緑地,35.65526194,139.3059872,横山第一,https://www.google.com/maps/dir/?api=1&destination=35.65526194%2C139.3059872
080-4都立富士森高校河川沿いフェンス,35.65626778,139.3023392,横山第一,https://www.google.com/maps/dir/?api=1&destination=35.65626778%2C139.3023392
080-5稲荷森神社北西塀,35.65295,139.3005519,横山第一,https://www.google.com/maps/dir/?api=1&destination=35.65295%2C139.3005519
080-6長房市民センター西側フェンス,35.65023,139.2953408,横山第一,https://www.google.com/maps/dir/?api=1&destination=35.65023%2C139.2953408
080-7旧長房南アパート52号棟東フェンス,35.65481611,139.2972453,横山第一,https://www.google.com/maps/dir/?api=1&destination=35.65481611%2C139.2972453
081-1東雲第二公園西側,35.65288722,139.3165636,横山第二,https://www.google.com/maps/dir/?api=1&destination=35.65288722%2C139.3165636
081-2南多摩病院南側フェンス,35.65513528,139.3129519,横山第二,https://www.google.com/maps/dir/?api=1&destination=35.65513528%2C139.3129519
081-3西八王子駅南口線路沿いフェンス,35.65591417,139.3115381,横山第二,https://www.google.com/maps/dir/?api=1&destination=35.65591417%2C139.3115381
081-4西八王子ハイツＡ棟西側垣根,35.65491222,139.3147269,横山第二,https://www.google.com/maps/dir/?api=1&destination=35.65491222%2C139.3147269
081-5ＮＴＴ八王子駐車場南側フェンス,35.65235111,139.3088856,横山第二,https://www.google.com/maps/dir/?api=1&destination=35.65235111%2C139.3088856
081-6散田給水所北側フェンス,35.65158306,139.3146078,横山第二,https://www.google.com/maps/dir/?api=1&destination=35.65158306%2C139.3146078
081-7東散田公園内,35.65160111,139.3101139,横山第二,https://www.google.com/maps/dir/?api=1&destination=35.65160111%2C139.3101139
082-1めじろ台東公園東側,35.64364639,139.3152811,横山第三,https://www.google.com/maps/dir/?api=1&destination=35.64364639%2C139.3152811
082-2山田橋前廣園禅寺駐車場フェンス,35.64573306,139.3166778,横山第三,https://www.google.com/maps/dir/?api=1&destination=35.64573306%2C139.3166778
082-3山田小学校南門東側フェンス,35.64598278,139.3136908,横山第三,https://www.google.com/maps/dir/?api=1&destination=35.64598278%2C139.3136908
082-4めじろ台東公園西側,35.643995,139.3146197,横山第三,https://www.google.com/maps/dir/?api=1&destination=35.643995%2C139.3146197
082-5緑町西公園北側,35.64527389,139.3199078,横山第三,https://www.google.com/maps/dir/?api=1&destination=35.64527389%2C139.3199078
082-6桝形公園北側植込,35.64230528,139.3168006,横山第三,https://www.google.com/maps/dir/?api=1&destination=35.64230528%2C139.3168006
082-7小比企北公園南側,35.64348944,139.3185139,横山第三,https://www.google.com/maps/dir/?api=1&destination=35.64348944%2C139.3185139
083-1第二開戸橋北,35.65892389,139.2978089,横山第四,https://www.google.com/maps/dir/?api=1&destination=35.65892389%2C139.2978089
083-2長房東アパート人形塚公園東側,35.6584675,139.3016875,横山第四,https://www.google.com/maps/dir/?api=1&destination=35.6584675%2C139.3016875
083-3中舟田公園北側フェンス,35.65778306,139.2976703,横山第四,https://www.google.com/maps/dir/?api=1&destination=35.65778306%2C139.2976703
083-4長房児童館南側塀,35.65714472,139.2984731,横山第四,https://www.google.com/maps/dir/?api=1&destination=35.65714472%2C139.2984731
083-5長房東アパート人形塚公園西側,35.65840861,139.3009156,横山第四,https://www.google.com/maps/dir/?api=1&destination=35.65840861%2C139.3009156
083-6開戸橋南,35.65759833,139.2961567,横山第四,https://www.google.com/maps/dir/?api=1&destination=35.65759833%2C139.2961567
084-1めじろ台駅前道路沿い植込,35.64365306,139.3069233,横山第五,https://www.google.com/maps/dir/?api=1&destination=35.64365306%2C139.3069233
084-2めじろ台西公園西側植込,35.64325306,139.3000328,横山第五,https://www.google.com/maps/dir/?api=1&destination=35.64325306%2C139.3000328
084-3めじろ台二丁目公園西側,35.64259833,139.3107947,横山第五,https://www.google.com/maps/dir/?api=1&destination=35.64259833%2C139.3107947
084-4向原公園北側フェンス,35.6398,139.3114422,横山第五,https://www.google.com/maps/dir/?api=1&destination=35.6398%2C139.3114422
084-5めじろ台南公園,35.63998722,139.3068897,横山第五,https://www.google.com/maps/dir/?api=1&destination=35.63998722%2C139.3068897
084-6めじろ台中公園内植込,35.64333278,139.3012392,横山第五,https://www.google.com/maps/dir/?api=1&destination=35.64333278%2C139.3012392
084-7めじろ台富士見公園,35.64449139,139.3097014,横山第五,https://www.google.com/maps/dir/?api=1&destination=35.64449139%2C139.3097014
085-1横山中学校南東フェンス,35.64885944,139.3039958,横山第六,https://www.google.com/maps/dir/?api=1&destination=35.64885944%2C139.3039958
085-2散田公園西側,35.64945167,139.3018978,横山第六,https://www.google.com/maps/dir/?api=1&destination=35.64945167%2C139.3018978
085-3散田小学校正門横フェンス,35.64768806,139.3024578,横山第六,https://www.google.com/maps/dir/?api=1&destination=35.64768806%2C139.3024578
085-4椿公園北側フェンス,35.64580889,139.3003567,横山第六,https://www.google.com/maps/dir/?api=1&destination=35.64580889%2C139.3003567
085-5中散田公園南側フェンス,35.65112556,139.3035003,横山第六,https://www.google.com/maps/dir/?api=1&destination=35.65112556%2C139.3035003
085-6横山中学校北側フェンス,35.64920278,139.3029378,横山第六,https://www.google.com/maps/dir/?api=1&destination=35.64920278%2C139.3029378
086-1船田運動広場フェンス,35.65585778,139.2892847,横山第七,https://www.google.com/maps/dir/?api=1&destination=35.65585778%2C139.2892847
086-2長房北アパート汚水処理場北側フェンス,35.65659167,139.2909058,横山第七,https://www.google.com/maps/dir/?api=1&destination=35.65659167%2C139.2909058
086-3長房北アパート７５号棟跡地北側,35.65712,139.293375,横山第七,https://www.google.com/maps/dir/?api=1&destination=35.65712%2C139.293375
086-4出羽山公園南側,35.65540194,139.2866075,横山第七,https://www.google.com/maps/dir/?api=1&destination=35.65540194%2C139.2866075
086-5出羽山公園東側,35.65558667,139.2876781,横山第七,https://www.google.com/maps/dir/?api=1&destination=35.65558667%2C139.2876781
086-6出羽山公園西側,35.65659917,139.2850908,横山第七,https://www.google.com/maps/dir/?api=1&destination=35.65659917%2C139.2850908
086-7城山手こぶし公園敷地内北側,35.65207722,139.2860169,横山第七,https://www.google.com/maps/dir/?api=1&destination=35.65207722%2C139.2860169
087-1長房アパート西２９号棟南側フェンス,35.65581417,139.2949075,横山第八,https://www.google.com/maps/dir/?api=1&destination=35.65581417%2C139.2949075
087-2長房アパート西３号棟北側バス停後方,35.65362667,139.2916944,横山第八,https://www.google.com/maps/dir/?api=1&destination=35.65362667%2C139.2916944
087-3長房アパート西１号棟南側バス停前,35.65279917,139.2920711,横山第八,https://www.google.com/maps/dir/?api=1&destination=35.65279917%2C139.2920711
087-4長房アパート西２８号棟北側駐車場南側フェンス,35.65593694,139.2932003,横山第八,https://www.google.com/maps/dir/?api=1&destination=35.65593694%2C139.2932003
087-5長房南アパート52号棟東側公園北側フェンス,35.65467528,139.2967547,横山第八,https://www.google.com/maps/dir/?api=1&destination=35.65467528%2C139.2967547
087-6長房南アパート船田遺跡公園北側,35.65372444,139.2949322,横山第八,https://www.google.com/maps/dir/?api=1&destination=35.65372444%2C139.2949322
100-1ゆりのき台中央公園,35.627525,139.3012139,館第一,https://www.google.com/maps/dir/?api=1&destination=35.627525%2C139.3012139
100-2たてまち幼稚園前市道脇フェンス,35.62774556,139.2945831,館第一,https://www.google.com/maps/dir/?api=1&destination=35.62774556%2C139.2945831
100-3椚田中学校校庭側門フェンス,35.63422083,139.3098119,館第一,https://www.google.com/maps/dir/?api=1&destination=35.63422083%2C139.3098119
100-4館事務所南側フェンス,35.63422333,139.3064558,館第一,https://www.google.com/maps/dir/?api=1&destination=35.63422333%2C139.3064558
100-5ひまわり保育園南側,35.63260806,139.2995558,館第一,https://www.google.com/maps/dir/?api=1&destination=35.63260806%2C139.2995558
100-6八王子医療センターバス折り返し場手前空地,35.63101639,139.2901244,館第一,https://www.google.com/maps/dir/?api=1&destination=35.63101639%2C139.2901244
100-7上館バス停向かい,35.63374389,139.2873128,館第一,https://www.google.com/maps/dir/?api=1&destination=35.63374389%2C139.2873128
100-8横山第一小学校北側フェンス,35.63437972,139.3043453,館第一,https://www.google.com/maps/dir/?api=1&destination=35.63437972%2C139.3043453
101-1寺田工務店横,35.6284625,139.3080156,館第二,https://www.google.com/maps/dir/?api=1&destination=35.6284625%2C139.3080156
101-2バス停「寺田東」前,35.62535111,139.3094256,館第二,https://www.google.com/maps/dir/?api=1&destination=35.62535111%2C139.3094256
101-3緑が丘小学校正門脇,35.62275333,139.3094397,館第二,https://www.google.com/maps/dir/?api=1&destination=35.62275333%2C139.3094397
101-4バス停「グリーンヒル寺田」北側寺田緑地,35.62176056,139.3017642,館第二,https://www.google.com/maps/dir/?api=1&destination=35.62176056%2C139.3017642
101-5グリーンヒル寺田１２７号棟北側歩道,35.62105139,139.3036261,館第二,https://www.google.com/maps/dir/?api=1&destination=35.62105139%2C139.3036261
101-6榛名橋先フェンス,35.62890056,139.3101969,館第二,https://www.google.com/maps/dir/?api=1&destination=35.62890056%2C139.3101969
101-7バス停「鍛冶谷戸」脇フェンス,35.62247389,139.3006672,館第二,https://www.google.com/maps/dir/?api=1&destination=35.62247389%2C139.3006672
101-8旧稲荷山小学校南側フェンス,35.61990472,139.3011594,館第二,https://www.google.com/maps/dir/?api=1&destination=35.61990472%2C139.3011594
102-1寺田緑地,35.62510778,139.3116231,館第三,https://www.google.com/maps/dir/?api=1&destination=35.62510778%2C139.3116231
102-2みなみ野下大船公園（大船会館入口脇）,35.6257975,139.3155206,館第三,https://www.google.com/maps/dir/?api=1&destination=35.6257975%2C139.3155206
102-3バス停「下大船」前,35.62858139,139.3138069,館第三,https://www.google.com/maps/dir/?api=1&destination=35.62858139%2C139.3138069
102-4パルスモ（株）前市道脇,35.61724972,139.3164833,館第三,https://www.google.com/maps/dir/?api=1&destination=35.61724972%2C139.3164833
102-5都道５０６号線土手,35.62119583,139.3141022,館第三,https://www.google.com/maps/dir/?api=1&destination=35.62119583%2C139.3141022
102-6大船久保田公園東側フェンス,35.62642028,139.3120569,館第三,https://www.google.com/maps/dir/?api=1&destination=35.62642028%2C139.3120569
102-7大船前田緑地北側道路沿い,35.626405,139.3142347,館第三,https://www.google.com/maps/dir/?api=1&destination=35.626405%2C139.3142347
103-1館中学校正門脇,35.62774639,139.2898992,館第四,https://www.google.com/maps/dir/?api=1&destination=35.62774639%2C139.2898992
103-2高尾山学園正門脇,35.62406639,139.2894742,館第四,https://www.google.com/maps/dir/?api=1&destination=35.62406639%2C139.2894742
103-3館ヶ丘団地３－６号棟東側植込,35.62603667,139.2871275,館第四,https://www.google.com/maps/dir/?api=1&destination=35.62603667%2C139.2871275
103-4館ヶ丘団地１－８号棟西側,35.62769056,139.2850836,館第四,https://www.google.com/maps/dir/?api=1&destination=35.62769056%2C139.2850836
103-5館ヶ丘団地１－１４号棟東側広場,35.62966028,139.2871253,館第四,https://www.google.com/maps/dir/?api=1&destination=35.62966028%2C139.2871253
103-6高尾山学園北側,35.62484417,139.2886144,館第四,https://www.google.com/maps/dir/?api=1&destination=35.62484417%2C139.2886144
103-7信号「医療センター入口」東側,35.63159417,139.2866386,館第四,https://www.google.com/maps/dir/?api=1&destination=35.63159417%2C139.2866386
104-1八王子市椚田運動場西側,35.63602556,139.3135056,館第五,https://www.google.com/maps/dir/?api=1&destination=35.63602556%2C139.3135056
104-2下椚田公園南側フェンス,35.63873778,139.3155572,館第五,https://www.google.com/maps/dir/?api=1&destination=35.63873778%2C139.3155572
104-3二軒在家公園南側コンクリート壁,35.6389325,139.3033017,館第五,https://www.google.com/maps/dir/?api=1&destination=35.6389325%2C139.3033017
104-4椚田小学校南側フェンス,35.63649472,139.3022436,館第五,https://www.google.com/maps/dir/?api=1&destination=35.63649472%2C139.3022436
104-5椚田小学校西側フェンス,35.63730472,139.3009669,館第五,https://www.google.com/maps/dir/?api=1&destination=35.63730472%2C139.3009669
104-6東京工業高専グランド南側歩道沿い（西寄り）,35.63854083,139.2952761,館第五,https://www.google.com/maps/dir/?api=1&destination=35.63854083%2C139.2952761
104-7東京工業高専東側フェンス,35.6386125,139.3007703,館第五,https://www.google.com/maps/dir/?api=1&destination=35.6386125%2C139.3007703
104-8エスフォルタアリーナ東側,35.63938556,139.2930258,館第五,https://www.google.com/maps/dir/?api=1&destination=35.63938556%2C139.2930258
110-1諏訪町公園北東側,35.67775778,139.2903203,元八王子第一,https://www.google.com/maps/dir/?api=1&destination=35.67775778%2C139.2903203
110-2上壱分方町民家ブロック塀,35.68064417,139.2892556,元八王子第一,https://www.google.com/maps/dir/?api=1&destination=35.68064417%2C139.2892556
110-3元八王子市民センター前植込,35.68305667,139.2860564,元八王子第一,https://www.google.com/maps/dir/?api=1&destination=35.68305667%2C139.2860564
110-4諏訪町・森公園南側フェンス,35.67742306,139.2924433,元八王子第一,https://www.google.com/maps/dir/?api=1&destination=35.67742306%2C139.2924433
110-5上壱分方小学校西側フェンス,35.68378694,139.2833031,元八王子第一,https://www.google.com/maps/dir/?api=1&destination=35.68378694%2C139.2833031
110-6特養ホーム諏訪の森道路沿い花壇,35.67546806,139.2937669,元八王子第一,https://www.google.com/maps/dir/?api=1&destination=35.67546806%2C139.2937669
110-7松枝住宅２号棟北側縁地,35.68236944,139.2935411,元八王子第一,https://www.google.com/maps/dir/?api=1&destination=35.68236944%2C139.2935411
110-8こどもキャンプ場東側,35.68318694,139.28171,元八王子第一,https://www.google.com/maps/dir/?api=1&destination=35.68318694%2C139.28171
111-1元八王子事務所東側フェンス,35.67119556,139.2933311,元八王子第二,https://www.google.com/maps/dir/?api=1&destination=35.67119556%2C139.2933311
111-2弐分方公園東側,35.67059333,139.2902642,元八王子第二,https://www.google.com/maps/dir/?api=1&destination=35.67059333%2C139.2902642
111-3石井ハイツ南側フェンス,35.66685028,139.2906269,元八王子第二,https://www.google.com/maps/dir/?api=1&destination=35.66685028%2C139.2906269
111-4ヘアサロンよしもと北側フェンス,35.67328694,139.2857392,元八王子第二,https://www.google.com/maps/dir/?api=1&destination=35.67328694%2C139.2857392
111-5元八王子小学校東側フェンス,35.66875222,139.2920483,元八王子第二,https://www.google.com/maps/dir/?api=1&destination=35.66875222%2C139.2920483
111-6四谷中学校東側フェンス,35.677645,139.2969242,元八王子第二,https://www.google.com/maps/dir/?api=1&destination=35.677645%2C139.2969242
111-7柳沢さくら公園南側植込,35.67186722,139.2856808,元八王子第二,https://www.google.com/maps/dir/?api=1&destination=35.67186722%2C139.2856808
111-8消防団第８分団第５部器具置場フェンス,35.66670583,139.2884725,元八王子第二,https://www.google.com/maps/dir/?api=1&destination=35.66670583%2C139.2884725
112-1スーパーアルプス横川店駐車場北側フェンス,35.66663583,139.3038319,元八王子第三,https://www.google.com/maps/dir/?api=1&destination=35.66663583%2C139.3038319
112-2横川下原公園北側入口フェンス,35.66769139,139.2971333,元八王子第三,https://www.google.com/maps/dir/?api=1&destination=35.66769139%2C139.2971333
112-3横川公園南側フェンス,35.66470528,139.3059753,元八王子第三,https://www.google.com/maps/dir/?api=1&destination=35.66470528%2C139.3059753
112-4デイサービスセンター東側民家ブロック塀,35.66524111,139.2976033,元八王子第三,https://www.google.com/maps/dir/?api=1&destination=35.66524111%2C139.2976033
112-5横川つつじ公園,35.66365083,139.2963744,元八王子第三,https://www.google.com/maps/dir/?api=1&destination=35.66365083%2C139.2963744
112-6横川西公園フェンス,35.6629625,139.294395,元八王子第三,https://www.google.com/maps/dir/?api=1&destination=35.6629625%2C139.294395
112-7つつじヶ丘緑地北側,35.66258833,139.2988706,元八王子第三,https://www.google.com/maps/dir/?api=1&destination=35.66258833%2C139.2988706
113-1松子舞西公園フェンス,35.6678425,139.2818508,元八王子第四,https://www.google.com/maps/dir/?api=1&destination=35.6678425%2C139.2818508
113-2道場根東公園前植込,35.66389889,139.2774178,元八王子第四,https://www.google.com/maps/dir/?api=1&destination=35.66389889%2C139.2774178
113-3梶原谷とちの木公園北側,35.66264722,139.2749983,元八王子第四,https://www.google.com/maps/dir/?api=1&destination=35.66264722%2C139.2749983
113-4元八王子町二丁目ガソリンスタンド北側空地フェンス,35.65827694,139.2810575,元八王子第四,https://www.google.com/maps/dir/?api=1&destination=35.65827694%2C139.2810575
113-5道場根中央公園北東隅切り,35.66500944,139.276075,元八王子第四,https://www.google.com/maps/dir/?api=1&destination=35.66500944%2C139.276075
113-6信号「八王子城跡入口」東側民家ブロック塀,35.65717222,139.2725517,元八王子第四,https://www.google.com/maps/dir/?api=1&destination=35.65717222%2C139.2725517
113-7霞が丘公園南側フェンス,35.65211667,139.2744497,元八王子第四,https://www.google.com/maps/dir/?api=1&destination=35.65211667%2C139.2744497
113-8高尾台西公園東側フェンス,35.65246806,139.2691311,元八王子第四,https://www.google.com/maps/dir/?api=1&destination=35.65246806%2C139.2691311
114-1元八王子東小学校北側フェンス,35.67139861,139.3035636,元八王子第五,https://www.google.com/maps/dir/?api=1&destination=35.67139861%2C139.3035636
114-2西蓮寺陣馬街道側万年塀,35.66920694,139.3005431,元八王子第五,https://www.google.com/maps/dir/?api=1&destination=35.66920694%2C139.3005431
114-3元八王子東小学校南側ブロック塀,35.66974278,139.3043206,元八王子第五,https://www.google.com/maps/dir/?api=1&destination=35.66974278%2C139.3043206
114-4八王子泉町住宅３号棟西側フェンス,35.67666167,139.2988575,元八王子第五,https://www.google.com/maps/dir/?api=1&destination=35.67666167%2C139.2988575
114-5叶谷公園西側入口脇フェンス,35.67125222,139.2998511,元八王子第五,https://www.google.com/maps/dir/?api=1&destination=35.67125222%2C139.2998511
114-6並木原公園西側植込,35.67713306,139.2997619,元八王子第五,https://www.google.com/maps/dir/?api=1&destination=35.67713306%2C139.2997619
114-7泉町ふれあい公園南側フェンス,35.67489972,139.3026561,元八王子第五,https://www.google.com/maps/dir/?api=1&destination=35.67489972%2C139.3026561
114-8泉町会館前,35.67403667,139.3020717,元八王子第五,https://www.google.com/maps/dir/?api=1&destination=35.67403667%2C139.3020717
115-1横川小学校北側フェンス,35.66755222,139.3081056,元八王子第六,https://www.google.com/maps/dir/?api=1&destination=35.66755222%2C139.3081056
115-2横川小学校西側校門脇フェンス,35.66722944,139.3068194,元八王子第六,https://www.google.com/maps/dir/?api=1&destination=35.66722944%2C139.3068194
115-3横川町住宅１１号棟北側植込,35.66892361,139.3072747,元八王子第六,https://www.google.com/maps/dir/?api=1&destination=35.66892361%2C139.3072747
115-4横川町住宅８号棟東側歩道橋下フェンス,35.667765,139.3096897,元八王子第六,https://www.google.com/maps/dir/?api=1&destination=35.667765%2C139.3096897
115-5横川町住宅１号棟東側フェンス,35.66563472,139.3092742,元八王子第六,https://www.google.com/maps/dir/?api=1&destination=35.66563472%2C139.3092742
115-6横川中学校西側フェンス,35.66808806,139.3043031,元八王子第六,https://www.google.com/maps/dir/?api=1&destination=35.66808806%2C139.3043031
115-7横川北ちびっ子広場西側,35.66691917,139.3043433,元八王子第六,https://www.google.com/maps/dir/?api=1&destination=35.66691917%2C139.3043433
116-1川町運動場入口横フェンス,35.67305333,139.2737297,元八王子第七,https://www.google.com/maps/dir/?api=1&destination=35.67305333%2C139.2737297
116-2バス停「タウン入口」向い側空地,35.66785472,139.2661481,元八王子第七,https://www.google.com/maps/dir/?api=1&destination=35.66785472%2C139.2661481
116-3グリーンタウン高尾内汚水処理場北側フェンス,35.67242306,139.2744567,元八王子第七,https://www.google.com/maps/dir/?api=1&destination=35.67242306%2C139.2744567
116-4グリーンタウン高尾バス折返場南側調整池植込,35.67202833,139.2758103,元八王子第七,https://www.google.com/maps/dir/?api=1&destination=35.67202833%2C139.2758103
116-5よしの沢公園南側植込,35.67068778,139.2707592,元八王子第七,https://www.google.com/maps/dir/?api=1&destination=35.67068778%2C139.2707592
116-6バス停「川町落合橋」東側民家ブロック塀,35.67122306,139.2774931,元八王子第七,https://www.google.com/maps/dir/?api=1&destination=35.67122306%2C139.2774931
116-7グリーンタウン高尾内公園南側,35.67084139,139.2681722,元八王子第七,https://www.google.com/maps/dir/?api=1&destination=35.67084139%2C139.2681722
130-1東京都八王子福祉園南側植込,35.67357667,139.2646833,恩方第一,https://www.google.com/maps/dir/?api=1&destination=35.67357667%2C139.2646833
130-2恩方市民センター北側,35.6741275,139.2684764,恩方第一,https://www.google.com/maps/dir/?api=1&destination=35.6741275%2C139.2684764
130-3恩方第一小学校北側,35.67024389,139.2547878,恩方第一,https://www.google.com/maps/dir/?api=1&destination=35.67024389%2C139.2547878
130-4恩方老人憩いの家駐車場内フェンス,35.66763417,139.2490292,恩方第一,https://www.google.com/maps/dir/?api=1&destination=35.66763417%2C139.2490292
130-5恩方第一小学校西側フェンス,35.66898194,139.2534917,恩方第一,https://www.google.com/maps/dir/?api=1&destination=35.66898194%2C139.2534917
130-6恩方中学校南側フェンス,35.66917722,139.2428614,恩方第一,https://www.google.com/maps/dir/?api=1&destination=35.66917722%2C139.2428614
130-7恩方上宿公園南側フェンス,35.67130333,139.2544758,恩方第一,https://www.google.com/maps/dir/?api=1&destination=35.67130333%2C139.2544758
130-8西東京バス（株）恩方営業所ブロック塀,35.67812389,139.2568919,恩方第一,https://www.google.com/maps/dir/?api=1&destination=35.67812389%2C139.2568919
131-1興慶寺入口,35.67125917,139.2269378,恩方第二,https://www.google.com/maps/dir/?api=1&destination=35.67125917%2C139.2269378
131-2夕やけ小やけふれあいの里第二駐車場前,35.67079972,139.2141483,恩方第二,https://www.google.com/maps/dir/?api=1&destination=35.67079972%2C139.2141483
131-3夕やけ小やけふれあいの里育苗園（温室）前植込,35.67154111,139.2165219,恩方第二,https://www.google.com/maps/dir/?api=1&destination=35.67154111%2C139.2165219
131-4降宿醍醐会館横,35.67864472,139.1903656,恩方第二,https://www.google.com/maps/dir/?api=1&destination=35.67864472%2C139.1903656
131-5恩方第二小学校正門脇,35.67179083,139.2103914,恩方第二,https://www.google.com/maps/dir/?api=1&destination=35.67179083%2C139.2103914
131-6案下会館付近,35.66363278,139.1913442,恩方第二,https://www.google.com/maps/dir/?api=1&destination=35.66363278%2C139.1913442
132-1多摩火薬機工（株）前,35.67689861,139.2466133,恩方第三,https://www.google.com/maps/dir/?api=1&destination=35.67689861%2C139.2466133
132-2小津町会館入口交差点,35.67894944,139.2353608,恩方第三,https://www.google.com/maps/dir/?api=1&destination=35.67894944%2C139.2353608
133-1夕焼け台公園北側フェンス,35.6851675,139.2678975,恩方第四,https://www.google.com/maps/dir/?api=1&destination=35.6851675%2C139.2678975
133-2陵北児童遊園北側フェンス,35.68279889,139.2702311,恩方第四,https://www.google.com/maps/dir/?api=1&destination=35.68279889%2C139.2702311
133-3元木まちの広場向かい,35.67958944,139.2681606,恩方第四,https://www.google.com/maps/dir/?api=1&destination=35.67958944%2C139.2681606
133-4元木小学校西側フェンス,35.68070194,139.2634939,恩方第四,https://www.google.com/maps/dir/?api=1&destination=35.68070194%2C139.2634939
133-5下恩方地区運動場,35.67745694,139.26115,恩方第四,https://www.google.com/maps/dir/?api=1&destination=35.67745694%2C139.26115
133-6飲食店東側梅林,35.67645417,139.2689481,恩方第四,https://www.google.com/maps/dir/?api=1&destination=35.67645417%2C139.2689481
140-1川口中部まちの広場南側フェンス,35.69363528,139.2795331,川口第一,https://www.google.com/maps/dir/?api=1&destination=35.69363528%2C139.2795331
140-2川口小学校東側民家ブロック塀,35.69161778,139.2818617,川口第一,https://www.google.com/maps/dir/?api=1&destination=35.69161778%2C139.2818617
140-3飲食店向かい側民家ブロック塀,35.68869556,139.2871525,川口第一,https://www.google.com/maps/dir/?api=1&destination=35.68869556%2C139.2871525
140-4鳥栖公園東側フェンス,35.69433778,139.2813294,川口第一,https://www.google.com/maps/dir/?api=1&destination=35.69433778%2C139.2813294
140-5クリーニング屋前畑,35.69302528,139.2833383,川口第一,https://www.google.com/maps/dir/?api=1&destination=35.69302528%2C139.2833383
140-6川口東部会館門柱東側フェンス,35.69031333,139.2886722,川口第一,https://www.google.com/maps/dir/?api=1&destination=35.69031333%2C139.2886722
140-7天理教川口分教会西畑北側,35.69216417,139.2892411,川口第一,https://www.google.com/maps/dir/?api=1&destination=35.69216417%2C139.2892411
140-8堀口児童遊園,35.69090028,139.2915789,川口第一,https://www.google.com/maps/dir/?api=1&destination=35.69090028%2C139.2915789
141-1楢原桜並木公園北側,35.68647417,139.3086178,川口第二,https://www.google.com/maps/dir/?api=1&destination=35.68647417%2C139.3086178
141-2中犬目まちの広場東側民家フェンス,35.69013611,139.3054906,川口第二,https://www.google.com/maps/dir/?api=1&destination=35.69013611%2C139.3054906
141-3陶鎔小学校北側フェンス,35.68861528,139.3077178,川口第二,https://www.google.com/maps/dir/?api=1&destination=35.68861528%2C139.3077178
141-4中犬目まちの広場西側フェンス,35.69033972,139.3052311,川口第二,https://www.google.com/maps/dir/?api=1&destination=35.69033972%2C139.3052311
141-5堀西公園フェンス,35.68933778,139.3025006,川口第二,https://www.google.com/maps/dir/?api=1&destination=35.68933778%2C139.3025006
141-6バス停「下犬目」畑前,35.68618028,139.3102219,川口第二,https://www.google.com/maps/dir/?api=1&destination=35.68618028%2C139.3102219
142-1圏央道上川橋西側畑,35.69855306,139.2694075,川口第三,https://www.google.com/maps/dir/?api=1&destination=35.69855306%2C139.2694075
142-2上川中部児童遊園東側,35.70483556,139.2546525,川口第三,https://www.google.com/maps/dir/?api=1&destination=35.70483556%2C139.2546525
142-3上川口小学校正門前道路南側,35.70503111,139.249785,川口第三,https://www.google.com/maps/dir/?api=1&destination=35.70503111%2C139.249785
142-4東京都水道局上川配水所西側斜面,35.71273,139.2320817,川口第三,https://www.google.com/maps/dir/?api=1&destination=35.71273%2C139.2320817
142-5上川西部会館向かい側民家ブロック塀,35.7112525,139.2360992,川口第三,https://www.google.com/maps/dir/?api=1&destination=35.7112525%2C139.2360992
142-6ROAD REST南側桃畑,35.70373167,139.2545006,川口第三,https://www.google.com/maps/dir/?api=1&destination=35.70373167%2C139.2545006
142-7信号「上川橋」東側空地,35.70191139,139.2597611,川口第三,https://www.google.com/maps/dir/?api=1&destination=35.70191139%2C139.2597611
143-1石材店向かい側空地,35.68232389,139.2593953,川口第四,https://www.google.com/maps/dir/?api=1&destination=35.68232389%2C139.2593953
143-2信号「八王子西インター」東側フェンス,35.68069306,139.255815,川口第四,https://www.google.com/maps/dir/?api=1&destination=35.68069306%2C139.255815
143-3バス停「小足」西民家植込,35.693485,139.2418892,川口第四,https://www.google.com/maps/dir/?api=1&destination=35.693485%2C139.2418892
143-4信号「美山小学校東」東側民家塀,35.68928583,139.2504806,川口第四,https://www.google.com/maps/dir/?api=1&destination=35.68928583%2C139.2504806
143-5美山小学校校庭南側フェンス,35.69020639,139.2479244,川口第四,https://www.google.com/maps/dir/?api=1&destination=35.69020639%2C139.2479244
143-6バス停「萩園」前フェンス,35.68452639,139.2549661,川口第四,https://www.google.com/maps/dir/?api=1&destination=35.68452639%2C139.2549661
143-7美山工業団地西側駐車場前,35.69718944,139.2393942,川口第四,https://www.google.com/maps/dir/?api=1&destination=35.69718944%2C139.2393942
144-1楢原斎場フェンス,35.6809125,139.30141,川口第五,https://www.google.com/maps/dir/?api=1&destination=35.6809125%2C139.30141
144-2楢原小学校東側入口手前畑南側,35.6758575,139.3091436,川口第五,https://www.google.com/maps/dir/?api=1&destination=35.6758575%2C139.3091436
144-3清川１号公園西側,35.67135083,139.3116567,川口第五,https://www.google.com/maps/dir/?api=1&destination=35.67135083%2C139.3116567
144-4清川２号公園西側,35.67153528,139.3089958,川口第五,https://www.google.com/maps/dir/?api=1&destination=35.67153528%2C139.3089958
144-5楢原鹿島公園北側,35.67740611,139.3092667,川口第五,https://www.google.com/maps/dir/?api=1&destination=35.67740611%2C139.3092667
144-6楢原中学校東側植込,35.67771139,139.3141544,川口第五,https://www.google.com/maps/dir/?api=1&destination=35.67771139%2C139.3141544
144-7歯科医院東側フェンス,35.68160556,139.3022867,川口第五,https://www.google.com/maps/dir/?api=1&destination=35.68160556%2C139.3022867
144-8一本松公園南側フェンス,35.67808583,139.3086697,川口第五,https://www.google.com/maps/dir/?api=1&destination=35.67808583%2C139.3086697
145-1川口下川原公園南民家ブロック塀,35.685265,139.2953767,川口第六,https://www.google.com/maps/dir/?api=1&destination=35.685265%2C139.2953767
145-2川口やまゆり館南側植込,35.68582167,139.2986497,川口第六,https://www.google.com/maps/dir/?api=1&destination=35.68582167%2C139.2986497
145-3松枝小学校南側フェンス,35.68477028,139.3008983,川口第六,https://www.google.com/maps/dir/?api=1&destination=35.68477028%2C139.3008983
145-4都立八王子北高校東側フェンス,35.68530722,139.3040075,川口第六,https://www.google.com/maps/dir/?api=1&destination=35.68530722%2C139.3040075
145-5駒形公園南側フェンス,35.68881028,139.29293,川口第六,https://www.google.com/maps/dir/?api=1&destination=35.68881028%2C139.29293
145-6唐松公園東側フェンス,35.69022583,139.3004147,川口第六,https://www.google.com/maps/dir/?api=1&destination=35.69022583%2C139.3004147
150-1宮下町防災倉庫フェンス,35.7030425,139.3159822,加住第一,https://www.google.com/maps/dir/?api=1&destination=35.7030425%2C139.3159822
150-2旧加住中学校正門脇フェンス,35.70393694,139.31346,加住第一,https://www.google.com/maps/dir/?api=1&destination=35.70393694%2C139.31346
150-3加住市民センター前植込,35.69950611,139.3235867,加住第一,https://www.google.com/maps/dir/?api=1&destination=35.69950611%2C139.3235867
150-4信号「丹木町二丁目」東,35.69510472,139.3296775,加住第一,https://www.google.com/maps/dir/?api=1&destination=35.69510472%2C139.3296775
150-5金子牧場入口畑,35.69295889,139.3218428,加住第一,https://www.google.com/maps/dir/?api=1&destination=35.69295889%2C139.3218428
150-6明王公園北側,35.69461,139.3245617,加住第一,https://www.google.com/maps/dir/?api=1&destination=35.69461%2C139.3245617
150-7加住事務所,35.700655,139.3162381,加住第一,https://www.google.com/maps/dir/?api=1&destination=35.700655%2C139.3162381
150-8加住小中学校西側フェンス,35.70163639,139.3159675,加住第一,https://www.google.com/maps/dir/?api=1&destination=35.70163639%2C139.3159675
151-1道の駅南側フェンス,35.68617444,139.3410197,加住第二,https://www.google.com/maps/dir/?api=1&destination=35.68617444%2C139.3410197
151-2信号「純心学園前」南側駐車場フェンス,35.69154528,139.3341617,加住第二,https://www.google.com/maps/dir/?api=1&destination=35.69154528%2C139.3341617
151-3大雄ビル西側畑,35.68783583,139.3431364,加住第二,https://www.google.com/maps/dir/?api=1&destination=35.68783583%2C139.3431364
151-4尾崎児童遊園北側,35.68011417,139.3445006,加住第二,https://www.google.com/maps/dir/?api=1&destination=35.68011417%2C139.3445006
151-5左入緑地公園南西畑,35.68182194,139.3423425,加住第二,https://www.google.com/maps/dir/?api=1&destination=35.68182194%2C139.3423425
152-1創価大学西駐輪場フェンス,35.68784167,139.3248917,加住第三,https://www.google.com/maps/dir/?api=1&destination=35.68784167%2C139.3248917
152-2創価大学正門北駐車場フェンス,35.68829889,139.3306142,加住第三,https://www.google.com/maps/dir/?api=1&destination=35.68829889%2C139.3306142
152-3バス停「谷野町南」東畑,35.68336639,139.3315114,加住第三,https://www.google.com/maps/dir/?api=1&destination=35.68336639%2C139.3315114
152-4谷萩公園北側,35.68695056,139.3251625,加住第三,https://www.google.com/maps/dir/?api=1&destination=35.68695056%2C139.3251625
152-5信号「谷野町南」東側植込,35.68119361,139.3347083,加住第三,https://www.google.com/maps/dir/?api=1&destination=35.68119361%2C139.3347083
152-6谷野栃ヶ澤公園西側,35.68307722,139.3291089,加住第三,https://www.google.com/maps/dir/?api=1&destination=35.68307722%2C139.3291089
153-1信号「戸吹町西」東畑,35.70861417,139.2938742,加住第四,https://www.google.com/maps/dir/?api=1&destination=35.70861417%2C139.2938742
153-2戸吹会館東側フェンス,35.70804028,139.2962828,加住第四,https://www.google.com/maps/dir/?api=1&destination=35.70804028%2C139.2962828
153-3大棚橋南側駐車場フェンス,35.70576861,139.2967722,加住第四,https://www.google.com/maps/dir/?api=1&destination=35.70576861%2C139.2967722
153-4戸吹清掃事業所北側植込,35.70169861,139.2943506,加住第四,https://www.google.com/maps/dir/?api=1&destination=35.70169861%2C139.2943506
153-5戸吹廣町西緑地入口右側フェンス,35.71090361,139.2868608,加住第四,https://www.google.com/maps/dir/?api=1&destination=35.71090361%2C139.2868608
154-1高月集会所南側畑,35.71346722,139.3209553,加住第五,https://www.google.com/maps/dir/?api=1&destination=35.71346722%2C139.3209553
154-2高月浄水所正門脇フェンス,35.710255,139.3230439,加住第五,https://www.google.com/maps/dir/?api=1&destination=35.710255%2C139.3230439
154-3不動院東側水路フェンス,35.70671889,139.3257394,加住第五,https://www.google.com/maps/dir/?api=1&destination=35.70671889%2C139.3257394
154-4信号「東秋川橋南」東,35.71657444,139.3187281,加住第五,https://www.google.com/maps/dir/?api=1&destination=35.71657444%2C139.3187281
160-1小坂ビル横用水路ガードフェンス,35.64369917,139.3284322,由井第一,https://www.google.com/maps/dir/?api=1&destination=35.64369917%2C139.3284322
160-2小比企下向公園東側,35.64138417,139.3311539,由井第一,https://www.google.com/maps/dir/?api=1&destination=35.64138417%2C139.3311539
160-3農産物直売所西側フェンス,35.63254444,139.3193242,由井第一,https://www.google.com/maps/dir/?api=1&destination=35.63254444%2C139.3193242
160-4聖パウロ病院東側三叉路付近緑地,35.63976778,139.3173328,由井第一,https://www.google.com/maps/dir/?api=1&destination=35.63976778%2C139.3173328
160-5由井第三小学校東側フェンス,35.64287139,139.3280406,由井第一,https://www.google.com/maps/dir/?api=1&destination=35.64287139%2C139.3280406
160-6小比企稲荷前公園北側,35.64329694,139.3293694,由井第一,https://www.google.com/maps/dir/?api=1&destination=35.64329694%2C139.3293694
161-1由井事務所北側フェンス,35.64344056,139.3333281,由井第二,https://www.google.com/maps/dir/?api=1&destination=35.64344056%2C139.3333281
161-2來光寺公園北側,35.64284611,139.3433319,由井第二,https://www.google.com/maps/dir/?api=1&destination=35.64284611%2C139.3433319
161-3ＪＲ片倉駅北口フェンス,35.63982889,139.3413139,由井第二,https://www.google.com/maps/dir/?api=1&destination=35.63982889%2C139.3413139
161-4片倉かまぬき公園西側擁壁植込,35.63616333,139.3432639,由井第二,https://www.google.com/maps/dir/?api=1&destination=35.63616333%2C139.3432639
161-5由井市民センター西側塀,35.64102083,139.3400156,由井第二,https://www.google.com/maps/dir/?api=1&destination=35.64102083%2C139.3400156
161-6由井かたくら学童保育所北側フェンス前,35.63660917,139.3372964,由井第二,https://www.google.com/maps/dir/?api=1&destination=35.63660917%2C139.3372964
161-7片倉つどいの森公園西側,35.63724222,139.3298,由井第二,https://www.google.com/maps/dir/?api=1&destination=35.63724222%2C139.3298
161-8川久保公園東側フェンス,35.64135139,139.3407078,由井第二,https://www.google.com/maps/dir/?api=1&destination=35.64135139%2C139.3407078
162-1みなみ野小学校正門横植込,35.63245056,139.3230831,由井第三,https://www.google.com/maps/dir/?api=1&destination=35.63245056%2C139.3230831
162-2みなみ野駅西口ロータリー植込,35.63089944,139.3301611,由井第三,https://www.google.com/maps/dir/?api=1&destination=35.63089944%2C139.3301611
162-3兵衛下平公園南側,35.62807972,139.3302781,由井第三,https://www.google.com/maps/dir/?api=1&destination=35.62807972%2C139.3302781
162-4みなみ野かしのき公園西側,35.62796194,139.3202681,由井第三,https://www.google.com/maps/dir/?api=1&destination=35.62796194%2C139.3202681
162-5みなみ野毘沙門の丘緑地西側,35.62893472,139.3276614,由井第三,https://www.google.com/maps/dir/?api=1&destination=35.62893472%2C139.3276614
162-6栃谷戸公園東側植込,35.62922861,139.3185453,由井第三,https://www.google.com/maps/dir/?api=1&destination=35.62922861%2C139.3185453
162-7みなみ野君田小学校東側フェンス,35.62734778,139.3258536,由井第三,https://www.google.com/maps/dir/?api=1&destination=35.62734778%2C139.3258536
162-8みなみ野菖蒲谷戸公園北西側,35.62922583,139.3246853,由井第三,https://www.google.com/maps/dir/?api=1&destination=35.62922583%2C139.3246853
162-9みなみ野けやき公園南側,35.63160444,139.3212678,由井第三,https://www.google.com/maps/dir/?api=1&destination=35.63160444%2C139.3212678
163-1片倉まちの広場東側農地,35.63290222,139.3472572,由井第四,https://www.google.com/maps/dir/?api=1&destination=35.63290222%2C139.3472572
163-2片倉台小学校北側植込,35.63173083,139.3466114,由井第四,https://www.google.com/maps/dir/?api=1&destination=35.63173083%2C139.3466114
163-3都立片倉高校北東側ネットフェンス,35.63036444,139.3412617,由井第四,https://www.google.com/maps/dir/?api=1&destination=35.63036444%2C139.3412617
163-4片倉台すずかけ公園,35.63514806,139.3464419,由井第四,https://www.google.com/maps/dir/?api=1&destination=35.63514806%2C139.3464419
163-5片倉台中央公園東側,35.62918806,139.3477617,由井第四,https://www.google.com/maps/dir/?api=1&destination=35.62918806%2C139.3477617
163-6片倉台坂の上公園東側,35.62803417,139.3459036,由井第四,https://www.google.com/maps/dir/?api=1&destination=35.62803417%2C139.3459036
163-7片倉台藤美公園南側,35.63978306,139.3448367,由井第四,https://www.google.com/maps/dir/?api=1&destination=35.63978306%2C139.3448367
164-1七国公園北東,35.61644278,139.3245956,由井第五,https://www.google.com/maps/dir/?api=1&destination=35.61644278%2C139.3245956
164-2七国第四緑地東側植込,35.62010667,139.32146,由井第五,https://www.google.com/maps/dir/?api=1&destination=35.62010667%2C139.32146
164-3宇津貫公園北側植込,35.62535417,139.3255419,由井第五,https://www.google.com/maps/dir/?api=1&destination=35.62535417%2C139.3255419
164-4宇津貫公園南西側植込,35.62398278,139.3245792,由井第五,https://www.google.com/maps/dir/?api=1&destination=35.62398278%2C139.3245792
164-5七国君田公園北西側フェンス,35.62406222,139.3226658,由井第五,https://www.google.com/maps/dir/?api=1&destination=35.62406222%2C139.3226658
164-6七国の丘公園西側角,35.62060667,139.3241117,由井第五,https://www.google.com/maps/dir/?api=1&destination=35.62060667%2C139.3241117
164-7兵衛和田内公園南西側,35.62239361,139.3324847,由井第五,https://www.google.com/maps/dir/?api=1&destination=35.62239361%2C139.3324847
164-8七国シフォンの丘公園,35.61800472,139.32485,由井第五,https://www.google.com/maps/dir/?api=1&destination=35.61800472%2C139.32485
170-1北野公園西側歩道と公園の境,35.64950083,139.3583647,北野第一,https://www.google.com/maps/dir/?api=1&destination=35.64950083%2C139.3583647
170-2由井第一小学校北門西側フェンス,35.64597917,139.3558933,北野第一,https://www.google.com/maps/dir/?api=1&destination=35.64597917%2C139.3558933
170-3北野駅南口ロータリー植込内,35.6448125,139.3527108,北野第一,https://www.google.com/maps/dir/?api=1&destination=35.6448125%2C139.3527108
170-4北野事務所正門西側フェンス,35.64596583,139.3530894,北野第一,https://www.google.com/maps/dir/?api=1&destination=35.64596583%2C139.3530894
170-5打越中学校南門西側フェンス,35.64457667,139.3573778,北野第一,https://www.google.com/maps/dir/?api=1&destination=35.64457667%2C139.3573778
170-6岸田公園東側,35.64921861,139.3537722,北野第一,https://www.google.com/maps/dir/?api=1&destination=35.64921861%2C139.3537722
170-7信号「新浅川橋南」東側フェンス,35.65294583,139.3540306,北野第一,https://www.google.com/maps/dir/?api=1&destination=35.65294583%2C139.3540306
170-8和田公園北西植込,35.65186917,139.3497056,北野第一,https://www.google.com/maps/dir/?api=1&destination=35.65186917%2C139.3497056
171-1長沼小学校西側道路沿いフェンス,35.64208194,139.3644847,北野第二,https://www.google.com/maps/dir/?api=1&destination=35.64208194%2C139.3644847
171-2ほたる公園南側フェンス,35.64241306,139.3710125,北野第二,https://www.google.com/maps/dir/?api=1&destination=35.64241306%2C139.3710125
171-3向河原公園南側,35.64622222,139.3623933,北野第二,https://www.google.com/maps/dir/?api=1&destination=35.64622222%2C139.3623933
171-4春日橋南駐車場フェンス,35.64416139,139.3613408,北野第二,https://www.google.com/maps/dir/?api=1&destination=35.64416139%2C139.3613408
171-5長沼駅北口西側ネットフェンス,35.64282806,139.3666533,北野第二,https://www.google.com/maps/dir/?api=1&destination=35.64282806%2C139.3666533
171-6長沼両田公園西側フェンス,35.64232833,139.3757217,北野第二,https://www.google.com/maps/dir/?api=1&destination=35.64232833%2C139.3757217
171-7長沼山下公園南側,35.64295111,139.3638139,北野第二,https://www.google.com/maps/dir/?api=1&destination=35.64295111%2C139.3638139
171-8下谷戸公園東側フェンス,35.64166417,139.3723286,北野第二,https://www.google.com/maps/dir/?api=1&destination=35.64166417%2C139.3723286
172-1絹ヶ丘緑地北東側フェンス,35.63669167,139.3579342,北野第三,https://www.google.com/maps/dir/?api=1&destination=35.63669167%2C139.3579342
172-2絹ヶ丘給水所フェンス,35.63471417,139.3632819,北野第三,https://www.google.com/maps/dir/?api=1&destination=35.63471417%2C139.3632819
172-3ディスカウントストア南側市道フェンス,35.64169639,139.3617675,北野第三,https://www.google.com/maps/dir/?api=1&destination=35.64169639%2C139.3617675
172-4絹ヶ丘３－１空地,35.63558194,139.3625361,北野第三,https://www.google.com/maps/dir/?api=1&destination=35.63558194%2C139.3625361
172-5北野台公園東側フェンス,35.63777611,139.36213,北野第三,https://www.google.com/maps/dir/?api=1&destination=35.63777611%2C139.36213
172-6北野台とりよせ公園バス停東側,35.63535139,139.3564544,北野第三,https://www.google.com/maps/dir/?api=1&destination=35.63535139%2C139.3564544
172-7絹ヶ丘緑地東側ネットフェンス,35.63523056,139.3593892,北野第三,https://www.google.com/maps/dir/?api=1&destination=35.63523056%2C139.3593892
173-1西武北野台中央公園南側バス停脇,35.62799472,139.3522433,北野第四,https://www.google.com/maps/dir/?api=1&destination=35.62799472%2C139.3522433
173-2打越南部公園東側,35.6314475,139.3497211,北野第四,https://www.google.com/maps/dir/?api=1&destination=35.6314475%2C139.3497211
173-3北野台ながれの公園北側,35.63176556,139.3559961,北野第四,https://www.google.com/maps/dir/?api=1&destination=35.63176556%2C139.3559961
173-4北野台こもれび公園北側,35.626595,139.3540922,北野第四,https://www.google.com/maps/dir/?api=1&destination=35.626595%2C139.3540922
173-5打越岡谷公園南側フェンス,35.63237444,139.3522819,北野第四,https://www.google.com/maps/dir/?api=1&destination=35.63237444%2C139.3522819
173-6高嶺小学校南側,35.62769444,139.3506439,北野第四,https://www.google.com/maps/dir/?api=1&destination=35.62769444%2C139.3506439
173-7北野台中央公園北西側,35.62930444,139.3520097,北野第四,https://www.google.com/maps/dir/?api=1&destination=35.62930444%2C139.3520097
173-8北野台ひざかり公園北側,35.62609472,139.3521325,北野第四,https://www.google.com/maps/dir/?api=1&destination=35.62609472%2C139.3521325
180-1バス停「北八王子駅入口」前,35.66801111,139.3587953,石川第一,https://www.google.com/maps/dir/?api=1&destination=35.66801111%2C139.3587953
180-2第八小学校正門脇,35.67138722,139.3611083,石川第一,https://www.google.com/maps/dir/?api=1&destination=35.67138722%2C139.3611083
180-3北八王子駅ロータリー外緑地,35.6696875,139.3628864,石川第一,https://www.google.com/maps/dir/?api=1&destination=35.6696875%2C139.3628864
180-4都立小宮公園大谷弁天池南東,35.67127472,139.3440608,石川第一,https://www.google.com/maps/dir/?api=1&destination=35.67127472%2C139.3440608
180-5東海大学八王子病院入口向かい側フェンス,35.67287056,139.3572633,石川第一,https://www.google.com/maps/dir/?api=1&destination=35.67287056%2C139.3572633
180-6前大谷公園北側,35.67063222,139.3458903,石川第一,https://www.google.com/maps/dir/?api=1&destination=35.67063222%2C139.3458903
180-7大矢化学工業（株）交差点フェンス,35.67524056,139.3707397,石川第一,https://www.google.com/maps/dir/?api=1&destination=35.67524056%2C139.3707397
180-8石川あさくらの公園向かい,35.67359972,139.3600564,石川第一,https://www.google.com/maps/dir/?api=1&destination=35.67359972%2C139.3600564
181-1石川市民センター正面玄関脇花壇,35.68028056,139.3646453,石川第二,https://www.google.com/maps/dir/?api=1&destination=35.68028056%2C139.3646453
181-2石川桑原公園西側フェンス,35.67808556,139.3680831,石川第二,https://www.google.com/maps/dir/?api=1&destination=35.67808556%2C139.3680831
181-3クリエイトＳ・Ｄ八王子小宮町店前都道フェンス,35.68624139,139.3712258,石川第二,https://www.google.com/maps/dir/?api=1&destination=35.68624139%2C139.3712258
181-4小宮会館,35.68774611,139.37014,石川第二,https://www.google.com/maps/dir/?api=1&destination=35.68774611%2C139.37014
181-5小宮駅南口駅前ロータリー,35.68546417,139.3683067,石川第二,https://www.google.com/maps/dir/?api=1&destination=35.68546417%2C139.3683067
181-6八王子水再生センター南側外周フェンス,35.69015972,139.3686644,石川第二,https://www.google.com/maps/dir/?api=1&destination=35.69015972%2C139.3686644
181-7鶴見児童遊園北側,35.682255,139.3706231,石川第二,https://www.google.com/maps/dir/?api=1&destination=35.682255%2C139.3706231
181-8八石公園北側,35.69068611,139.3646489,石川第二,https://www.google.com/maps/dir/?api=1&destination=35.69068611%2C139.3646489
182-1宇津木台中公園北側フェンス,35.68870639,139.3585461,石川第三,https://www.google.com/maps/dir/?api=1&destination=35.68870639%2C139.3585461
182-2中村第２まちの広場北東入口フェンス,35.68110056,139.3496206,石川第三,https://www.google.com/maps/dir/?api=1&destination=35.68110056%2C139.3496206
182-3消防団第４分団第６部詰所北側歩道,35.69213639,139.3571022,石川第三,https://www.google.com/maps/dir/?api=1&destination=35.69213639%2C139.3571022
182-4宇津木台緑地南側,35.68993389,139.3543639,石川第三,https://www.google.com/maps/dir/?api=1&destination=35.68993389%2C139.3543639
182-5滝山台丸山公園西側,35.69075472,139.3516175,石川第三,https://www.google.com/maps/dir/?api=1&destination=35.69075472%2C139.3516175
182-6宇津木台小学校北側入口フェンス,35.68717861,139.3539858,石川第三,https://www.google.com/maps/dir/?api=1&destination=35.68717861%2C139.3539858
182-7久保山公園東側トイレ前,35.68471806,139.356545,石川第三,https://www.google.com/maps/dir/?api=1&destination=35.68471806%2C139.356545
182-8石川中学校北側フェンス前,35.68392056,139.3576461,石川第三,https://www.google.com/maps/dir/?api=1&destination=35.68392056%2C139.3576461
183-1新田公園北側,35.66654222,139.3682322,石川第四,https://www.google.com/maps/dir/?api=1&destination=35.66654222%2C139.3682322
183-2松風公園西側,35.66362639,139.3642883,石川第四,https://www.google.com/maps/dir/?api=1&destination=35.66362639%2C139.3642883
183-3高倉緑地北東側,35.66970667,139.370415,石川第四,https://www.google.com/maps/dir/?api=1&destination=35.66970667%2C139.370415
183-4都立八王子東高校北西フェンス,35.66255194,139.3631367,石川第四,https://www.google.com/maps/dir/?api=1&destination=35.66255194%2C139.3631367
183-5高倉南公園西側,35.66142694,139.3627219,石川第四,https://www.google.com/maps/dir/?api=1&destination=35.66142694%2C139.3627219
183-6八王子大和田町アパート１号棟北側,35.66518778,139.3622978,石川第四,https://www.google.com/maps/dir/?api=1&destination=35.66518778%2C139.3622978
183-7高倉小学校南側,35.66233694,139.366115,石川第四,https://www.google.com/maps/dir/?api=1&destination=35.66233694%2C139.366115
